[
    {
        "name": "Aikmans Cellar Bar",
        "classification": "Medium",
        "average_stay": 120,
        "popularity": 6,
        "location": {
            "lat": 56.3391667,
            "lng": -2.7986111
        },
        "capacity": 80,
        "drink_cost": 5.0,
        "average_wait": 20,
        "closing_time": "01:00"
    },
    {
        "name": "The Central",
        "classification": "Medium",
        "average_stay": 65,
        "popularity": 5,
        "location": {
            "lat": 56.3405433,
            "lng": -2.794943
        },
        "capacity": 75,
        "drink_cost": 7.5,
        "average_wait": 15,
        "closing_time": "00:30"
    },
    {
        "name": "The Criterion",
        "classification": "Small",
        "average_stay": 45,
        "popularity": 5,
        "location": {
            "lat": 56.3395652,
            "lng": -2.7946389
        },
        "capacity": 40,
        "drink_cost": 6.0,
        "average_wait": 20,
        "closing_time": "00:30"
    },
    {
        "name": "Greyfriars Inn",
        "classification": "Large Pub",
        "average_stay": 40,
        "popularity": 2,
        "location": {
            "lat": 56.341919,
            "lng": -2.7989043
        },
        "capacity": 400,
        "drink_cost": 3.5,
        "average_wait": 20,
        "closing_time": "00:30"
    },
    {
        "name": "The Keys Bar",
        "classification": "Small",
        "average_stay": 30,
        "popularity": 1,
        "location": {
            "lat": 56.3405,
            "lng": -2.7958
        },
        "capacity": 30,
        "drink_cost": 4.5,
        "average_wait": 20,
        "closing_time": "12:45"
    },
    {
        "name": "Molly Malones",
        "classification": "Large Pub",
        "average_stay": 90,
        "popularity": 8,
        "location": {
            "lat": 56.3401,
            "lng": -2.8015
        },
        "capacity": 120,
        "drink_cost": 4.0,
        "average_wait": 20,
        "closing_time": "00:30"
    },
    {
        "name": "The Rule",
        "classification": "Large",
        "average_stay": 120,
        "popularity": 8,
        "location": {
            "lat": 56.3444855,
            "lng": -2.7969
        },
        "capacity": 250,
        "drink_cost": 4.0,
        "average_wait": 5,
        "closing_time": "02:00"
    },
    {
        "name": "St Andrews Brewing Company",
        "classification": "Medium",
        "average_stay": 100,
        "popularity": 7,
        "location": {
            "lat": 56.33903189999999,
            "lng": -2.8015
        },
        "capacity": 65,
        "drink_cost": 5.5,
        "average_wait": 20,
        "closing_time": "00:30"
    },
    {
        "name": "St Andrews Student Union",
        "classification": "Large",
        "average_stay": 150,
        "popularity": 10,
        "location": {
            "lat": 56.34407,
            "lng": -2.81002
        },
        "capacity": 400,
        "drink_cost": 3.5,
        "average_wait": 20,
        "closing_time": "00:00"
    },
    {
        "name": "The Vic",
        "classification": "Large Pub",
        "average_stay": 120,
        "popularity": 6,
        "location": {
            "lat": 56.34023200000001,
            "lng": -2.7990179
        },
        "capacity": 180,
        "drink_cost": 5.0,
        "average_wait": 15,
        "closing_time": "00:30"
    },
    {
        "name": "Whey Pat Tavern",
        "classification": "Medium Pub",
        "average_stay": 120,
        "popularity": 7,
        "location": {
            "lat": 56.3385976,
            "lng": -2.8012512
        },
        "capacity": 80,
        "drink_cost": 5.0,
        "average_wait": 5,
        "closing_time": "00:30"
    },
    {
        "name": "Wetherspoons",
        "classification": "Spoons",
        "average_stay": 60,
        "popularity": 10,
        "location": {
            "lat": 56.3395976,
            "lng": -2.8052512
        },
        "capacity": 200,
        "drink_cost": 2.0,
        "average_wait": 5,
        "closing_time": "01:00"
    }
]